id;name;level;lat;lon
1;John Doe;4;50.0878;14.4205
2;Jane Smith;2;49.1951;16.6068
3;Bob Johnson;5;49.5938;17.2509
4;Alice Brown;3;50.2092;15.8328
5;Charlie Davis;1;49.7384;13.3736
6;Eve Wilson;6;50.7671;15.0562
7;Frank Miller;2;48.9745;14.4706
8;Grace Lee;4;50.0407;15.7766
9;Hank Taylor;5;49.8209;18.2625
10;Ivy Anderson;3;50.5333;14.1333